"id","name","lat","lon"
1,"Johnston Atoll",16.7273,-169.538
2,"Jarvis Island",-0.380268,-160.018
3,"Baker Island",0.194931,-176.479
4,"Howland Island",0.80217,-176.638
5,"Wake Island",19.2863,166.643
6,"Midway Islands",28.206,-177.376
7,"Navassa Island",18.4043,-75.011
8,"Palmyra Atoll",5.88359,-162.076
