id,name,lon,lat
PA.BC,Bocas del Toro,-82.57932,9.214784
PA.CH,Chiriquí,-82.39849,8.489046
PA.CC,Coclé,-80.42622,8.557446
PA.CL,Colón,-80.01407,9.189316
PA.DR,Darién,-77.9158,8.170134
PA.EM,Emberá,-77.76505,8.232836
PA.HE,Herrera,-80.70051,7.854821
PA.SB,Kuna Yala,-78.3155,9.174796
PA.LS,Los Santos,-80.3927,7.582484
PA.NB,Ngöbe Buglé,-81.77035,8.658103
PA.PO,Panamá Oeste,-79.90447,8.824692
PA.PN,Panamá,-78.85174,9.066192
PA.VR,Veraguas,-81.13151,8.091252
