"id","name","lat","lon"
1,"Region de Kedougou",12.842,-12.1903
2,"Tambacounda",13.9278,-13.2878
3,"Kolda",12.9574,-14.422
4,"Region de Sedhiou",12.8803,-15.6151
5,"Ziguinchor",12.4818,-16.3435
6,"Saint-Louis",16.3051,-14.9945
7,"Matam",15.4647,-13.5063
8,"Region de Kaffrine",14.2364,-15.2014
9,"Kaolack",13.8846,-15.9845
10,"Fatick",13.8699,-16.4165
11,"Louga",15.4183,-15.5162
12,"Region de Thies",14.6931,-16.8671
13,"Dakar",14.7835,-17.3327
14,"Diourbel",14.7509,-16.1895
