"id","name","lat","lon"
1,"Southern Red Sea Region",13.5712,41.7389
2,"Debub Region",15.6179,40.1691
3,"Northern Red Sea Region",16.6263,37.9175
4,"Gash-Barka Region",15.0297,37.6058
5,"Maekel Region",14.858,38.9679
6,"Anseba Region",15.2792,39.0563
