"id","name","lat","lon"
1,"Southern Red Sea Region",13.5712,41.7389
2,"Northern Red Sea Region",15.6179,40.1691
3,"Anseba Region",16.6263,37.9175
4,"Gash-Barka Region",15.0297,37.6058
5,"Debub Region",14.858,38.9679
6,"Maekel Region",15.2792,39.0563
