"id","name","lat","lon"
1,"Austurland",65.4363,-15.2246
2,"Sudurland",64.0187,-18.5336
3,"Sudurnes",63.9429,-22.1206
4,"Hofudborgarsvadi",64.0828,-21.8646
5,"Hofudborgarsvadi",64.2277,-21.536
6,"Vesturland",64.8183,-21.357
7,"Vestfirdir",65.7068,-22.1562
8,"Nordurland Vestra",65.1515,-19.7011
9,"Nordurland Eystra",65.3752,-17.1782
