"id","name","lat","lon"
1,"Chittagong",22.4245,92.1333
2,"Sylhet Division",24.6452,91.7033
3,"Dhaka Division",24.1653,90.4053
4,"Rangpur Division",25.7571,89.112
5,"Rajshahi Division",24.6664,89.0438
6,"Khulna Division",22.9179,89.3708
7,"Borishal",22.4351,90.2369
