"id","name","lat","lon"
1,"Upper East Region",10.8183,-0.779779
2,"Northern Region",9.27258,-1.11905
3,"Volta Region",7.33855,0.396325
4,"Brong-Ahafo Region",8.16555,-1.42805
5,"Western Region",5.70024,-2.34206
6,"Upper West Region",10.404,-2.14449
7,"Central Region",5.49477,-1.26555
8,"Greater Accra Region",5.83921,0.105309
9,"Ashanti Region",6.75219,-1.3296
10,"Eastern Region",6.42584,-0.460431
