"id","name","lat","lon"
1,"Southern District",30.935,34.8419
2,"Northern District",32.8235,35.4202
3,"Haifa District",32.5523,34.9727
4,"Central District",31.9068,34.8491
5,"Jerusalem District",31.7397,35.0176
6,"Tel Aviv District",32.0966,34.8091
