"id","name","lat","lon"
1,"Serravalle",43.9676,12.4721
2,"Domagnano",43.9466,12.4721
3,"Faetano",43.9312,12.4761
4,"Montegiardino",43.9134,12.4699
5,"Fiorentino",43.9021,12.4521
6,"Chiesanuova",43.9069,12.4095
7,"San Marino",43.9215,12.4243
8,"Acquaviva",43.9425,12.4052
9,"Borgo Maggiore",43.9337,12.4389
