"id","name","lat","lon"
1,"South West Community Development Council",1.33718,103.705
2,"Central Singapore Community Development Council",1.31704,103.846
3,"South East Community Development Council",1.33524,103.932
4,"North East Community Development Region",1.38379,103.925
5,"North West Community Development Council",1.41809,103.808
