id,name,lat,lon
1,Bagua,-5.111782976713194,-78.52445234376131
2,Bongará,-5.852513180334197,-77.89462585286601
3,Chachapoyas,-6.504400231633333,-77.80491111013586
4,Condorcanqui,-4.135777328629654,-78.18534203927418
5,Luya,-6.317651049486912,-78.07113367799747
6,Rodríguez de Mendoza,-6.398284829498417,-77.44416294531837
7,Utcubamba,-5.697568296933261,-78.4077177348318
8,Aija,-9.802580131727854,-77.69910526822602
9,Antonio Raymondi,-9.136037497850026,-77.06155724646156
10,Asunción,-9.18956125767382,-77.37737115411585
11,Bolognesi,-10.214969133928752,-77.20341154400809
12,Carhuaz,-9.300123871073994,-77.55273667596083
13,Carlos Fermin Fitzcarrald,-9.024699991577874,-77.22686171243718
14,Casma,-9.54596705745726,-78.36729777238727
15,Corongo,-8.595005048569492,-77.88889236906275
16,Huaraz,-9.593448898945928,-77.64591127960675
17,Huari,-9.32872752534827,-77.03348294645933
18,Huarmey,-10.15846933626331,-78.0734622193122
19,Huaylas,-8.92679396175332,-77.87799655309944
20,Mariscal Luzuriaga,-8.91038644746407,-77.37240652829387
21,Ocros,-10.470245798753474,-77.42549068005866
22,Pallasca,-8.348207284010604,-77.93447466366732
23,Pomabamba,-8.729128897410355,-77.42924710048149
24,Recuay,-9.975482315161994,-77.48340765342007
25,Santa,-9.170132784217008,-78.55929259399883
26,Sihuas,-8.502062825258182,-77.6012955493215
27,Yungay,-9.197444950371322,-77.71790933771109
28,Abancay,-13.743572975287346,-72.886965951293
29,Andahuaylas,-13.798960970136475,-73.42657244992759
30,Antabamba,-14.347585123496087,-72.77653597781003
31,Aymaraes,-14.39044006841585,-73.24815346352838
32,Chincheros,-13.433256455889314,-73.68828072307052
33,Cotabambas,-14.051250366788068,-72.3460633777757
34,Grau,-14.096272765683072,-72.63827334540464
35,Arequipa,-16.280942839078335,-71.50796424343658
36,Camaná,-16.559309065421672,-72.80330321924409
37,Caravelí,-15.846250398562276,-74.09576446946451
38,Castilla,-15.654840628852515,-72.28551031990702
39,Caylloma,-15.581708710268265,-71.70802109016614
40,Condesuyos,-15.397755880659847,-72.58012571464883
41,Islay,-17.05153449409914,-71.89457898748148
42,La Unión,-15.05767898284531,-72.82765404987984
43,Cangallo,-13.529174717042274,-74.43676396784852
44,Huamanga,-13.340392844898348,-74.18391952886122
45,Huanca Sancos,-13.895081377256039,-74.5299056204381
46,Huanta,-12.539030081628024,-74.2633315746422
47,La Mar,-13.186649606965549,-73.69775964361119
48,Lucanas,-14.63555328325305,-74.40910704789326
49,Parinacochas,-15.021539776149346,-73.57129348937575
50,Paucar del Sara Sara,-15.12512835370173,-73.28631078677087
51,Sucre,-14.108974270584605,-73.74026650629062
52,Victor Fajardo,-13.753612891628613,-74.22664606524961
53,Vilcas Huamán,-13.669407866207127,-73.88118719057417
54,Cajabamba,-7.505516900901515,-78.11557366931555
55,Cajamarca,-7.237606113164127,-78.46249337415543
56,Celendín,-6.813694790866878,-78.18723123317105
57,Chota,-6.449730977998793,-78.81676116455927
58,Contumazá,-7.315769220250488,-79.00841549192197
59,Cutervo,-6.221586794024738,-78.83825623697882
60,Hualgayoc,-6.714126671983591,-78.55230697005462
61,Jaén,-5.699028240025391,-79.0888270530786
62,San Ignacio,-5.1104577975988,-78.9585934947349
63,San Marcos,-7.3111760146760165,-78.08978397588628
64,San Miguel,-6.9332304391179145,-78.901599150951
65,San Pablo,-7.041019160643043,-78.73663517922424
66,Santa Cruz,-6.703907070338678,-78.98767829379824
67,Callao,-12.065694070496425,-77.16778046841839
68,Acomayo,-13.937116507977914,-71.6662391507262
69,Anta,-13.479682646219057,-72.34485517237654
70,Calca,-13.065912313246372,-71.99924252610485
71,Canas,-14.433744226594731,-71.36659322804971
72,Canchis,-14.098058388388063,-71.14248211019147
73,Chumbivilcas,-14.424703809755,-71.96456703114904
74,Cusco,-13.561866211974515,-71.98260224265283
75,Espinar,-14.984614446249928,-71.32411931642662
76,La Convención,-12.053677615815044,-72.78987017194255
77,Paruro,-13.928558995391734,-71.88740664088468
78,Paucartambo,-13.17776641476651,-71.51243460341345
79,Quispicanchi,-13.553701760990062,-71.11415518542395
80,Urubamba,-13.28997988689394,-72.2988335303541
81,Ambo,-10.231904473797464,-76.2321901420527
82,Dos de Mayo,-9.63771886563191,-76.66849507905933
83,Huacaybamba,-9.016591692250811,-76.77433387202552
84,Huamalíes,-9.349615941897211,-76.7278509152143
85,Huenuco,-9.794146152787931,-76.16252062526311
86,Lauricocha,-10.180593089274824,-76.69360378399091
87,Leoncio Prado,-9.002621159892271,-76.11747653124544
88,Marañón,-8.716393701514388,-76.6254280484221
89,Pachitea,-10.0739723222234,-75.9002082494206
90,Puerto Inca,-9.30555935150931,-75.11664311332527
91,Yarowilca,-9.79112519362037,-76.57240979876998
92,Acobamba,-12.810141513836623,-74.57759678264847
93,Angaraes,-12.98559298251625,-74.63775442784106
94,Castrovirreyna,-13.11599959163792,-75.47970883577204
95,Churcampa,-12.598146546527824,-74.51668126316005
96,Huancavelica,-12.687135693158904,-75.0310033178959
97,Huaytara,-13.594793543867791,-74.93520361342817
98,Tayacaja,-12.39251917716701,-74.72196634416234
99,Chincha,-13.35596931465823,-76.04651093957311
100,Ica,-14.52902235885345,-75.90820437242594
101,Nazca,-15.154866271455276,-75.23180705523585
102,Palpa,-14.42168285058744,-75.164982312977
103,Pisco,-13.913061137952198,-76.25654097268846
104,Chanchamayo,-11.013086331401954,-74.98542102329134
105,Chupaca,-12.187430863717136,-75.45420471816439
106,Concepción,-11.827027065927554,-75.19896583574966
107,Huancayo,-12.047568315491054,-75.11865312776204
108,Jauja,-11.704998284088418,-75.54479815573029
109,Junín,-10.957080668321542,-75.93276389308517
110,Satipo,-11.316294050974463,-74.16182035374209
111,Tarma,-11.226788309095397,-75.5955647498658
112,Yauli,-11.505502675714549,-76.17309791434846
113,Ascope,-7.7892512256913005,-79.32192282563241
114,Bolívar,-7.341138539059122,-77.69977527303827
115,Chepén,-7.227386511519215,-79.60652109924665
116,Gran Chimú,-7.551572490292488,-78.63670560902848
117,Julcan,-8.16557963351658,-78.45980237122095
118,Otuzco,-7.774943783388423,-78.62258058954379
119,Pacasmayo,-7.479024548945089,-79.52792184618875
120,Pataz,-8.053074172770724,-77.4447780317034
121,Sánchez Carrión,-7.777818748246773,-77.89124287774838
122,Santiago de Chuco,-8.096580476916207,-78.13936433199352
123,Trujillo,-8.159245726563032,-78.9909733994323
124,Viru,-8.567355972470839,-78.75513170551679
125,Chiclayo,-6.944034017999679,-79.73931385629949
126,Ferreñafe,-6.364256925120303,-79.46467778538558
127,Lambayeque,-6.551533932846187,-80.15596898004164
128,Lima,-12.192214984926732,-76.93291632250765
129,Barranca,-10.729262163960346,-77.7529143432303
130,Cañete,-12.844730934788632,-76.49679810815363
131,Cajatambo,-10.530530218126978,-77.01724905936882
132,Canta,-11.506782933503032,-76.67723809267505
133,Huaral,-11.480560109502077,-77.21605376595745
134,Huarochiri,-11.943193614735215,-76.50732047881174
135,Huaura,-11.10763449211461,-77.54264266903513
136,Oyon,-10.780393863179341,-76.85877644574117
137,Yauyos,-12.585602266266982,-75.95072221879083
138,Alto Amazonas,-5.076733112170589,-76.34070895426794
139,Loreto,-3.909508610012413,-75.15503109396212
140,Mariscal Ramón Castilla,-4.2835909515421084,-72.16351452564848
141,Maynas,-2.8489497962315715,-73.34269004416973
142,Requena,-5.9244546837817875,-74.09319428706995
143,Ucayali,-7.3465515588314805,-75.63299714986879
144,Manu,-12.107279987959183,-71.05798461804858
145,Tahuamanu,-11.089351512468546,-70.77341929549068
146,Tambopata,-11.801376988831972,-70.74527909337576
147,General Sánchez Cerro,-16.54604604394624,-70.86803276193015
148,Ilo,-17.625426893284086,-71.35931104459843
149,Mariscal Nieto,-16.856811776603394,-70.68476997024887
150,Daniel Alcides Carrión,-10.507586650917577,-76.481003568481
151,Oxapampa,-10.526588371778226,-74.98777153197696
152,Pasco,-10.783774192954198,-76.23253063630156
153,Ayabaca,-4.5214942935704805,-79.9342742729817
154,Huancabamba,-5.498847581431372,-79.50582267106961
155,Morropón,-5.176121545750228,-79.84895300443031
156,Paita,-5.088199280609551,-81.13208910570633
157,Piura,-5.002028947179429,-80.25670035927502
158,Sechura,-6.182078487885397,-80.87096296789208
159,Sullana,-4.436312229310415,-80.48680856938726
160,Talara,-4.459031189890258,-81.24930699679548
161,Azángaro,-14.729068253469734,-70.08629091761898
162,Carabaya,-14.068825835551023,-70.06404895458905
163,Chucuíto,-16.434405318724185,-69.49353436510694
164,El Collao,-16.443659111861994,-69.65118320232608
165,Huancane,-15.274570374678483,-69.81373076325454
166,Lago Titicaca,-15.674055726011245,-69.77050996102105
167,Lampa,-15.351733982263308,-70.51332562410843
168,Melgar,-14.596157280428487,-70.62316247857729
169,Moho,-15.367871968597088,-69.44012070277873
170,Puno,-15.8160183462237,-69.92886175410878
171,San Antonio de Putina,-14.613878743500655,-69.74892701911791
172,San Román,-15.667205223809711,-70.33365449756829
173,Sandia,-13.862771713594046,-69.03533894300467
174,Yunguyo,-16.27857323913649,-69.0261126472293
175,Bellavista,-7.353188684734935,-76.44100098608345
176,El Dorado,-6.5933781479329365,-76.70788257507186
177,Huallaga,-6.758306796017749,-76.90363381710625
178,Lamas,-6.363920015175966,-76.42623891284283
179,Mariscal Cáceres,-7.309053482026689,-77.16477093860595
180,Moyobamba,-5.850738787960686,-77.16990031970964
181,Picota,-6.977826085416757,-76.3558554564992
182,Rioja,-5.887192443938032,-77.34360730505213
183,San Martín,-6.493967253690341,-75.91152144543089
184,Tocache,-8.425258588280649,-76.62670215593394
185,Candarave,-17.065617329772458,-70.2613598799569
186,Jorge Basadre,-17.845406626273686,-70.93514308001062
187,Tacna,-18.081939867861752,-70.51903714054082
188,Tarata,-17.413993442549184,-69.99911340622705
189,Contralmirante Villar,-3.8874971603156787,-80.81068450215957
190,Tumbes,-3.5773603262212905,-80.47396864109986
191,Zarumilla,-3.465685910004801,-80.28263284061512
192,Atalaya,-10.878984943224047,-72.84599680457613
193,Coronel Portillo,-8.631189176591368,-74.62386006575076
194,Padre Abad,-8.602327224693099,-75.16047900194377
195,Purús,-9.853341230008077,-70.99359825395894
