"id","name","lat","lon"
1,"Rift Valley Province",1.15655,36.0169
2,"Eastern Province",2.60695,37.7915
3,"North Eastern Province",1.01482,40.2748
4,"Coast Province",-2.51514,39.5816
5,"Nyanza Province",-0.511452,34.4239
6,"Western Province",0.537049,34.5306
7,"Nairobi Province",-1.29384,36.9039
8,"Central Province",-0.709986,36.8463
