"id","name","lat","lon"
1,"Musandam",25.9744,56.2943
2,"Muhafazat Shamal al Batinah",23.9794,56.8199
3,"Muhafazat al Buraymi",24.3888,55.9933
4,"Az Zahirah",22.9127,55.9327
5,"Muhafazat Zufar",18.4966,54.2927
6,"Muhafazat al Wusta",20.4263,56.8705
7,"Muhafazat Janub ash Sharqiyah",21.5958,58.9632
8,"Muhafazat Shamal ash Sharqiyah",22.2943,58.565
9,"Muhafazat Masqat",23.2505,58.6759
10,"Muhafazat Janub al Batinah",23.4299,57.6472
11,"Muhafazat ad Dakhiliyah",22.474,57.3411
