id,name,depto,lon,lat
1,Alto Orinoco,Amazonas,-64.85507,2.931976
2,Atabapo,Amazonas,-66.63462,3.753081
3,Atures,Amazonas,-67.36423,5.721542
4,Autana,Amazonas,-67.17918,4.978259
5,Manapiare,Amazonas,-65.67674,5.006657
6,Maroa,Amazonas,-66.83681,2.637222
7,Río Negro,Amazonas,-65.75097,1.654093
8,Anaco,Anzoátegui,-64.46078,9.274909
9,Aragua,Anzoátegui,-64.77009,9.289138
10,Bolívar,Anzoátegui,-64.63681,9.983021
11,Bruzual,Anzoátegui,-65.35837,9.888481
12,Cajigal,Anzoátegui,-65.2921,9.651154
13,Carvajal,Anzoátegui,-65.6584,9.903161
14,Fernando de Peñalver,Anzoátegui,-65.06539,9.988455
15,Freites,Anzoátegui,-64.0259,9.272655
16,"General Sir Arthur McGregor
",Anzoátegui,-65.00758,9.142825
17,Guanipa,Anzoátegui,-63.87781,8.760249
18,Guanta,Anzoátegui,-64.54908,10.2147
19,Independencia,Anzoátegui,-63.40966,8.449322
20,Isla,Anzoátegui,-64.66694,10.28933
21,Libertad,Anzoátegui,-64.51474,9.748907
22,Lic. Diego Bautista Urban,Anzoátegui,-64.68932,10.20375
23,Miranda,Anzoátegui,-64.24243,8.408461
24,Monagas,Anzoátegui,-64.84953,8.109089
25,Píritu,Anzoátegui,-65.02824,9.9189
26,San Juan de Capistrano,Anzoátegui,-65.38908,10.07179
27,Santa Ana,Anzoátegui,-64.5959,9.161546
28,Simón Rodríguez,Anzoátegui,-64.13971,8.723524
29,Sotillo,Anzoátegui,-64.53272,10.15781
30,Achaguas,Apure,-68.41736,7.250284
31,Biruaca,Apure,-67.69852,7.709185
32,Muñoz,Apure,-69.31192,7.615517
33,Páez,Apure,-70.87383,7.26975
34,Pedro Camejo,Apure,-67.87141,6.743833
35,Rómulo Gallegos,Apure,-69.40904,6.805938
36,San Fernando,Apure,-66.95452,7.515247
37,Bolívar,Aragua,-67.35949,10.24176
38,Camatagua,Aragua,-66.86803,9.843984
39,Francisco Linares,Aragua,-67.50039,10.20598
40,Girardot,Aragua,-67.53755,10.35905
41,José Angel Lamas,Aragua,-67.45863,10.16694
42,José Félix Ribas,Aragua,-67.26024,10.20906
43,José R Revenga,Aragua,-67.18343,10.29842
44,Libertador,Aragua,-67.51361,10.17321
45,Mario Briceño Iragorry,Aragua,-67.59218,10.32798
46,"Ocumare de la Costa de Oro
",Aragua,-67.70475,10.43026
47,San Casimiro,Aragua,-66.91687,9.994217
48,San Sebastián,Aragua,-67.13941,10.00697
49,Santiago Mariño,Aragua,-67.43147,10.37331
50,Santos Michelena,Aragua,-67.12166,10.20091
51,Sucre,Aragua,-67.39081,10.15804
52,Tovar,Aragua,-67.2997,10.40966
53,Urdaneta,Aragua,-66.74598,9.553825
54,Zamora,Aragua,-67.42817,10.06176
55,Alberto Arvelo Torrealba,Barinas,-69.99629,8.833176
56,Andres Eloy Blanco,Barinas,-71.07031,7.43908
57,Antonio José de Sucre,Barinas,-70.64637,8.076917
58,Arismendi,Barinas,-68.16252,8.150013
59,Barinas,Barinas,-70.01847,8.330854
60,Bolívar,Barinas,-70.50663,8.822845
61,Cruz Paredes,Barinas,-70.25967,8.911631
62,Ezequiel Zamora,Barinas,-71.07496,7.754729
63,Obispos,Barinas,-69.85853,8.466274
64,Pedraza,Barinas,-70.35018,8.009237
65,Rojas,Barinas,-69.64604,8.553739
66,Sosa,Barinas,-69.15493,8.211089
67,Angostura,Bolívar,-63.12186,5.788358
68,Caroní,Bolívar,-62.71456,8.179156
69,Cedeño,Bolívar,-65.91648,6.651587
70,El Callao,Bolívar,-61.55123,6.980417
71,Gran Sabana,Bolívar,-61.70943,5.115112
72,Heres,Bolívar,-63.62141,7.877456
73,Padre Pedro Chien,Bolívar,-61.78852,7.896041
74,Piar,Bolívar,-62.37042,7.198518
75,Roscio,Bolívar,-61.85628,6.979419
76,Sifontes,Bolívar,-61.19496,6.863331
77,Sucre,Bolívar,-64.27273,5.84232
78,Bejuma,Carabobo,-68.20039,10.29237
79,Carlos Arevalo,Carabobo,-67.72105,10.00507
80,Diego Ibarra,Carabobo,-67.66628,10.31554
81,Guacara,Carabobo,-67.85224,10.28888
82,Juan José Mora,Carabobo,-68.21071,10.46909
83,Lago Valencia,Carabobo,-67.70178,10.19277
84,Libertador,Carabobo,-68.09897,10.07923
85,Los Guayos,Carabobo,-67.88229,10.15642
86,Miranda,Carabobo,-68.30676,10.15252
87,Montalbán,Carabobo,-68.25299,10.25041
88,Naguanagua,Carabobo,-68.0154,10.3046
89,Puerto Cabello,Carabobo,-67.9732,10.41546
90,San Diego,Carabobo,-67.9216,10.27575
91,San Joaquín,Carabobo,-67.77039,10.30639
92,Valencia,Carabobo,-67.96128,10.03312
93,Anzoátegui,Cojedes,-68.82165,9.696958
94,Ezequiel Zomora,Cojedes,-68.58685,9.795563
95,Falcón,Cojedes,-68.23223,9.976512
96,Girardot,Cojedes,-68.35098,8.813828
97,Lima Blanco,Cojedes,-68.34076,9.861987
98,Pao de San Juan Bautista,Cojedes,-68.04677,9.369918
99,Ricaurte,Cojedes,-68.60483,9.358694
100,Romulo Gallegos,Cojedes,-68.4419,9.443889
101,Tinaco,Cojedes,-68.29908,9.571741
102,Antonio Diaz,Delta Amacuro,-60.89824,8.389476
103,Casacoima,Delta Amacuro,-61.99545,8.418503
104,Pedernales,Delta Amacuro,-62.14313,9.711091
105,Tucupita,Delta Amacuro,-61.67458,9.253338
106,Dependencias Federales,Dependencias Federales,-65.49031,11.41256
107,Libertador,Distrito Capital,-66.96391,10.48008
108,Acosta,Falcón,-68.55163,11.17523
109,Bolívar,Falcón,-69.86449,11.03547
110,Buchivacoa,Falcón,-70.62873,10.91218
111,Cacique Manaure,Falcón,-68.53798,10.98863
112,Carirubana,Falcón,-70.0095,11.72329
113,Colina,Falcón,-69.46539,11.34358
114,Dabajuro,Falcón,-70.60677,10.70301
115,Democracia,Falcón,-70.14847,10.83921
116,Falcón,Falcón,-70.01248,11.96519
117,Federación,Falcón,-69.56317,10.84929
118,Jacura,Falcón,-68.90735,11.01758
119,Los Tanques,Falcón,-70.20994,11.83336
120,Mauroa,Falcón,-70.9845,10.79679
121,Miranda,Falcón,-69.87163,11.3299
122,Monseñor Iturriza,Falcón,-68.57483,10.87021
123,Palma Sola,Falcón,-68.54241,10.70247
124,Píritu,Falcón,-69.01368,11.31914
125,Petit,Falcón,-69.43261,11.07414
126,San Francisco,Falcón,-68.68655,11.14103
127,Silva,Falcón,-68.42133,10.75901
128,Sucre,Falcón,-69.68825,11.07816
129,Tocópero,Falcón,-69.22262,11.4865
130,Unión,Falcón,-69.14683,10.8459
131,Urumaco,Falcón,-70.26408,11.13211
132,Zamora,Falcón,-69.29266,11.31274
133,Camaguán,Guárico,-67.53943,8.120152
134,Chaguaramas,Guárico,-66.28861,9.329613
135,El Socorro,Guárico,-65.60843,8.596788
136,Infante,Guárico,-65.95435,8.451175
137,Las Mercedes,Guárico,-66.44328,8.324365
138,Mellado,Guárico,-67.07437,9.377356
139,Miranda,Guárico,-67.2639,8.688259
140,Monagas,Guárico,-66.34404,9.73689
141,Ortíz,Guárico,-67.57792,9.490495
142,Ribas,Guárico,-65.71788,9.345334
143,Roscio,Guárico,-67.26302,9.797616
144,San Gerónimo de Guayabal,Guárico,-67.10955,7.984252
145,San José de Guaribe,Guárico,-65.83937,9.797473
146,Santa María de Ipire,Guárico,-65.32111,8.503397
147,Zaraza,Guárico,-65.26353,9.15507
148,Andrés Eloy Blanco,Lara,-69.54364,9.71708
149,Crespo,Lara,-69.13507,10.40419
150,Iribarren,Lara,-69.40582,10.20644
151,Jiménez,Lara,-69.60417,9.959689
152,Morán,Lara,-69.86505,9.727568
153,Palavecino,Lara,-69.19322,10.04539
154,Simón Planas,Lara,-69.0553,9.899963
155,Torres,Lara,-70.20103,10.19399
156,Urdaneta,Lara,-69.59371,10.61372
157,Alberto Adriani,Mérida,-71.69592,8.620158
158,Andrés Bello,Mérida,-71.39241,8.684021
159,Antonio Pinto Salinas,Mérida,-71.63204,8.38917
160,Aricagua,Mérida,-71.13152,8.147654
161,Arzobispo Chacón,Mérida,-71.39832,8.091574
162,Campo Elías,Mérida,-71.27907,8.491348
163,Caracciolo Parra Olmedo,Mérida,-71.21498,8.851692
164,Cardenal Quintero,Mérida,-70.6601,8.856598
165,Guaraque,Mérida,-71.6728,8.12994
166,Julio César Salas,Mérida,-70.92528,9.202645
167,Justo Briceño,Mérida,-70.94424,8.950975
168,Libertador,Mérida,-71.05271,8.496518
169,Miranda,Mérida,-70.78025,8.960226
170,Obispo Ramos de Lora,Mérida,-71.4667,8.79826
171,Padre Noguera,Mérida,-71.46845,7.768664
172,Pueblo Llano,Mérida,-70.64588,8.977612
173,Rangel,Mérida,-70.85286,8.692393
174,Rivas Davila,Mérida,-71.83766,8.220679
175,Santos Marquina,Mérida,-70.94816,8.551969
176,Sucre,Mérida,-71.46643,8.410534
177,Tovar,Mérida,-71.73673,8.31343
178,Tulio Febres Cordero,Mérida,-71.08388,9.034757
179,Zea,Mérida,-71.76992,8.417537
180,Acevedo,Miranda,-66.30619,10.21507
181,Andrés Bello,Miranda,-66.0278,10.28661
182,Baruta,Miranda,-66.82782,10.41575
183,Brión,Miranda,-66.19063,10.51799
184,Buroz,Miranda,-66.12096,10.33697
185,Carrizal,Miranda,-66.96513,10.35837
186,Chacao,Miranda,-66.83758,10.51672
187,Cristóbal Rojas,Miranda,-66.82387,10.2765
188,El Hatillo,Miranda,-66.77103,10.41648
189,Guaicaipuro,Miranda,-67.01048,10.28524
190,Independencia,Miranda,-66.59918,10.19847
191,Lander,Miranda,-66.67735,10.07674
192,Los Salias,Miranda,-66.91658,10.40074
193,Páez,Miranda,-65.94208,10.14709
194,Paz Castillo,Miranda,-66.63136,10.33686
195,Pedro Gual,Miranda,-65.66506,10.08696
196,Plaza,Miranda,-66.63892,10.49146
197,Simón Bolívar,Miranda,-66.7066,10.19855
198,Sucre,Miranda,-66.75228,10.4976
199,Urdaneta,Miranda,-66.89211,10.13736
200,Zamora,Miranda,-66.48332,10.47275
201,Acosta,Monagas,-63.74469,10.10129
202,Aguasay,Monagas,-63.69306,9.316834
203,Bolívar,Monagas,-63.11367,10.14697
204,Caripe,Monagas,-63.41399,10.18709
205,Cedeño,Monagas,-63.76095,9.839139
206,Ezequiel Zamora,Monagas,-63.6798,9.621114
207,Libertador,Monagas,-62.67295,8.860397
208,Maturín,Monagas,-62.93882,9.474863
209,Piar,Monagas,-63.4294,9.967457
210,Punceres,Monagas,-63.15346,10.01422
211,Santa Barbara,Monagas,-63.52391,9.567609
212,Sotillo,Monagas,-62.38467,8.571906
213,Uracoa,Monagas,-62.33435,8.843302
214,Antolín del Campo,Nueva Esparta,-63.85859,11.12002
215,Arismendi,Nueva Esparta,-63.85057,11.03954
216,Díaz,Nueva Esparta,-63.96423,10.98531
217,Gómez,Nueva Esparta,-63.90773,11.08577
218,García,Nueva Esparta,-63.89383,10.95617
219,Isla de Coche,Nueva Esparta,-63.93901,10.77602
220,Maneiro,Nueva Esparta,-63.8115,11.00915
221,Marcano,Nueva Esparta,-63.96455,11.06666
222,Mariño,Nueva Esparta,-63.84799,10.96072
223,Peninsula de Macanao,Nueva Esparta,-64.19553,10.98015
224,Tubores,Nueva Esparta,-64.18446,10.81606
225,Agua Blanca,Portuguesa,-69.05347,9.686657
226,Araure,Portuguesa,-69.2462,9.685446
227,Esteller,Portuguesa,-69.15001,9.248078
228,Guanare,Portuguesa,-69.71808,9.200477
229,Guanarito,Portuguesa,-68.90806,8.514522
230,Monseñor José Vicente de Unda,Portuguesa,-69.92905,9.516803
231,Ospino,Portuguesa,-69.38622,9.314078
232,Páez,Portuguesa,-69.01804,9.544161
233,Papelón,Portuguesa,-69.23371,8.86447
234,San Genaro de Boconoito,Portuguesa,-69.92881,8.97507
235,San Rafael de Onoto,Portuguesa,-68.9716,9.719257
236,Santa Rosalía,Portuguesa,-68.8579,9.033027
237,Sucre,Portuguesa,-69.99782,9.343349
238,Turén,Portuguesa,-68.87164,9.289423
239,Andrés Eloy Blanco,Sucre,-63.29022,10.36093
240,Andrés Mata,Sucre,-63.3096,10.54122
241,Arismendi,Sucre,-62.73015,10.68628
242,Benítez,Sucre,-62.93063,10.33945
243,Bermúdez,Sucre,-63.23955,10.6437
244,Bolívar,Sucre,-63.9484,10.39711
245,Cajigal,Sucre,-62.79135,10.61956
246,Cruz Salmerón Acosta,Sucre,-63.97706,10.60127
247,Libertador,Sucre,-62.98586,10.55787
248,Mariño,Sucre,-62.53818,10.61913
249,Mejía,Sucre,-63.76455,10.39451
250,Montes,Sucre,-63.93335,10.20536
251,Ribero,Sucre,-63.56363,10.44652
252,Sucre,Sucre,-64.23982,10.24001
253,Valdez,Sucre,-62.21124,10.64571
254,Andrés Bello,Táchira,-72.12697,7.880687
255,Antonio Rómulo Costa,Táchira,-72.15213,8.210456
256,Ayacucho,Táchira,-72.28241,8.128387
257,Bolívar,Táchira,-72.42994,7.757291
258,Cárdenas,Táchira,-72.08432,7.772327
259,Córdoba,Táchira,-72.22518,7.525149
260,Fernández Feo,Táchira,-71.96978,7.501343
261,Francisco de Miranda,Táchira,-71.87204,7.903945
262,García de Hevia,Táchira,-72.26375,8.392263
263,Guasimos,Táchira,-72.23507,7.83182
264,Independencia,Táchira,-72.30907,7.798509
265,Jauregui,Táchira,-71.93586,8.222551
266,José María Vargas,Táchira,-72.07054,8.037372
267,Junín,Táchira,-72.36517,7.634127
268,Libertad,Táchira,-72.34596,7.798008
269,Libertador,Táchira,-71.61143,7.596982
270,Lobatera,Táchira,-72.2857,7.919823
271,Michelena,Táchira,-72.18971,7.984633
272,Panamericano,Táchira,-72.05516,8.471673
273,Pedro María Ureña,Táchira,-72.41719,7.941481
274,Rafael Urdaneta,Táchira,-72.43258,7.535937
275,Samuel Dario Maldonado,Táchira,-71.87508,8.522178
276,San Cristóbal,Táchira,-72.17574,7.714784
277,San Judas Tadeo,Táchira,-72.03231,8.289468
278,Seboruco,Táchira,-72.09002,8.162513
279,Simón Rodriguez,Táchira,-71.8361,8.370716
280,Sucre,Táchira,-71.97032,7.872784
281,Torbes,Táchira,-72.14949,7.626702
282,Uribante,Táchira,-71.74547,7.868085
283,Andrés Bello,Trujillo,-70.70926,9.677435
284,Boconó,Trujillo,-70.28014,9.254545
285,Bolívar,Trujillo,-70.8304,9.413016
286,Candelaria,Trujillo,-70.41161,9.68067
287,Carache,Trujillo,-70.22404,9.705605
288,Escuque,Trujillo,-70.70285,9.323185
289,José Felipe Márquez Cañizalez,Trujillo,-70.54348,9.877987
290,Juan Vicente Campos Elías,Trujillo,-70.07752,9.471029
291,La Ceiba,Trujillo,-70.98914,9.496548
292,Miranda,Trujillo,-70.65987,9.601152
293,Monte Carmelo,Trujillo,-70.87105,9.263049
294,Motatán,Trujillo,-70.60616,9.492709
295,Pampán,Trujillo,-70.44634,9.553965
296,Pampanito,Trujillo,-70.50442,9.462163
297,Rafael Rangel,Trujillo,-70.72835,9.387868
298,San Rafael de Carvajal,Trujillo,-70.56706,9.406204
299,Sucre,Trujillo,-70.81383,9.522878
300,Trujillo,Trujillo,-70.42267,9.372514
301,Urdaneta,Trujillo,-70.58217,9.175092
302,Valera,Trujillo,-70.68688,9.214917
303,Vargas,Vargas,-66.90494,10.54855
304,Arístides Bastidas,Yaracuy,-68.81829,10.3248
305,Bolívar,Yaracuy,-68.85285,10.51149
306,Bruzual,Yaracuy,-68.8257,10.24515
307,Cocorote,Yaracuy,-68.71583,10.3669
308,Independencia,Yaracuy,-68.66094,10.36349
309,José Antonio Páez,Yaracuy,-68.92747,10.13782
310,La Trinidad,Yaracuy,-68.67181,10.28272
311,Manuel Monge,Yaracuy,-68.70064,10.67151
312,Nirgua,Yaracuy,-68.59415,10.10982
313,Peña,Yaracuy,-69.06003,10.15009
314,San Felipe,Yaracuy,-68.60525,10.46925
315,Sucre,Yaracuy,-68.74365,10.30158
316,Urachiche,Yaracuy,-68.93372,10.24684
317,Veroes,Yaracuy,-68.4527,10.47768
318,Almirante Padilla,Zulia,-71.69184,11.01808
319,Baralt,Zulia,-70.86646,9.881666
320,Cabimas,Zulia,-71.23379,10.42163
321,Catatumbo,Zulia,-72.20682,9.082682
322,Colón,Zulia,-71.92325,8.896847
323,Francisco Javier Pulgar,Zulia,-71.57637,8.909951
324,Guajira,Zulia,-71.95275,11.34847
325,Jesús Enrique Lossada,Zulia,-72.25229,10.64943
326,Jesús María Semprún,Zulia,-72.7461,9.137592
327,La Cañada de Urdaneta,Zulia,-71.94946,10.3829
328,Lagunillas,Zulia,-71.11792,10.24288
329,Machiques de Perijá,Zulia,-72.61154,9.786059
330,Maracaibo,Zulia,-71.6857,10.69631
331,Mara,Zulia,-72.1715,10.93069
332,Miranda,Zulia,-71.26289,10.72019
333,Rosario de Perijá,Zulia,-72.37791,10.3034
334,San Francisco,Zulia,-71.68563,10.57187
335,Santa Rita,Zulia,-71.36948,10.54368
336,Simón Bolívar,Zulia,-71.28439,10.31295
337,Sucre,Zulia,-71.19828,9.135171
338,Valmore Rodríguez,Zulia,-70.96414,10.16296
