"id","name","lat","lon"
1,"Karas Region",-27.0276,17.4903
2,"Kunene Region",-19.8757,13.9847
3,"Omusati Region",-18.3099,14.8918
4,"Ohangwena Region",-17.5789,16.7798
5,"Kavango Region",-18.5224,19.4968
6,"Zambezi Region",-17.8491,23.1229
7,"Hardap Region",-24.5108,17.2167
8,"Otjozondjupa Region",-20.0032,18.2876
9,"Omaheke Region",-22.0526,19.4738
10,"Erongo Region",-22.2166,15.0824
11,"Khomas Region",-22.7056,17.1204
12,"Oshana Region",-18.4961,15.662
13,"Oshikoto Region",-18.5381,17.0179
