id,name,depto,lon,lat
PY.NE.AL,Alberdi,Ñeembucú,-58.06468,-26.17701
PY.NE.CE,Cerrito,Ñeembucú,-57.59829,-27.31909
PY.NE.DE,Desmochados,Ñeembucú,-58.11933,-27.06713
PY.NE.GD,General José Eduvigis Díaz,Ñeembucú,-58.34288,-27.1726
PY.NE.GC,Guazú Cuá,Ñeembucú,-57.7601,-26.98794
PY.NE.HU,Humaitá,Ñeembucú,-58.48029,-27.08827
PY.NE.IU,Isla Umbú,Ñeembucú,-58.31344,-26.96633
PY.NE.LA,Laureles,Ñeembucú,-57.58389,-27.16292
PY.NE.MM,Mayor José J. Martinez,Ñeembucú,-58.12869,-27.18938
PY.NE.PP,Paso de Patria,Ñeembucú,-58.52643,-27.21919
PY.NE.PI,Pilar,Ñeembucú,-58.19478,-26.88561
PY.NE.SN,San Juan Bautista del Ñeembucu,Ñeembucú,-57.84778,-26.60846
PY.NE.TA,Tacuaras,Ñeembucú,-57.86429,-26.82285
PY.NE.VF,Villa Franca,Ñeembucú,-57.95464,-26.33433
PY.NE.VO,Villa Oliva,Ñeembucú,-57.71565,-26.03462
PY.NE.VI,Villalbín,Ñeembucú,-57.90617,-27.16898
PY.AG.FO,Fuerte Olimpo,Alto Paraguay,-58.66396,-20.40338
PY.AG.LV,La Victoria,Alto Paraguay,-58.82662,-21.60638
PY.AG.ML,Mayor Pablo Lagerenza,Alto Paraguay,-60.24272,-20.00535
PY.AA.NC,Ñacunday,Alto Paraná,-54.86955,-26.08933
PY.AA.CE,Ciudad del Este,Alto Paraná,-54.65784,-25.49617
PY.AA.DM,Doctor Juan León Mallorquín,Alto Paraná,-55.25849,-25.4784
,Domingo Martínez de Irala,Alto Paraná,-54.70644,-25.85631
,Hernandarias,Alto Paraná,-54.69516,-25.24985
PY.AA.IT,Itakyry,Alto Paraná,-55.14952,-24.81396
PY.AA.JO,Juan Emilio O'Leary,Alto Paraná,-55.36246,-25.46841
,Los Cedrales,Alto Paraná,-54.75733,-25.68628
PY.AA.MB,Mbaracayú,Alto Paraná,-54.71032,-25.02673
PY.AA.MG,Minga Guazú,Alto Paraná,-54.82853,-25.49692
PY.AA.MP,Minga Porá,Alto Paraná,-54.85981,-24.75418
PY.AA.NR,Naranjal,Alto Paraná,-55.19848,-26.02286
,Presidente Franco,Alto Paraná,-54.643,-25.59657
PY.AA.SA,San Alberto,Alto Paraná,-54.68592,-24.84114
PY.AA.SC,San Cristóbal,Alto Paraná,-55.36768,-25.78754
PY.AA.SR,Santa Rita,Alto Paraná,-55.12824,-25.77322
PY.AA.SM,Santa Rosa del Monday,Alto Paraná,-54.9896,-25.74321
PY.AA.YG,Yguazú,Alto Paraná,-55.09993,-25.4097
PY.AM.BV,Bella Vista,Amambay,-56.45051,-22.47628
,Capitán Bado,Amambay,-55.81591,-23.41578
PY.AM.PC,Pedro Juan Caballero,Amambay,-55.95335,-22.78269
PY.AS.AS,Asunción,Asunción,-57.60261,-25.27946
PY.BQ.DP,Doctor Pedro P. Peña,Boquerón,-61.36736,-22.70158
PY.BQ.GG,General Eugenio A. Garay,Boquerón,-61.05274,-21.14307
PY.BQ.ME,Mariscal José Félix Estigarribia,Boquerón,-60.29258,-22.37196
PY.CG.TF,3 de Febrero,Caaguazú,-55.83277,-25.20508
PY.CG.CG,Caaguazú,Caaguazú,-56.05354,-25.40839
PY.CG.CR,Carayaó,Caaguazú,-56.32273,-25.18398
PY.CG.CO,Coronel Oviedo,Caaguazú,-56.42416,-25.4823
PY.CG.DB,Doctor Cecilio Báez,Caaguazú,-56.24163,-25.08752
PY.CG.DE,Doctor J. Eulogio Estigarribia,Caaguazú,-55.5935,-25.39463
PY.CG.DF,Doctor Juan Manuel Frutos,Caaguazú,-55.82098,-25.35559
PY.CG.JO,José Domingo Ocampos,Caaguazú,-55.44012,-25.44245
PY.CG.LP,La Pastora,Caaguazú,-56.51492,-25.25567
PY.CG.ML,Mariscal Francisco Solano López,Caaguazú,-55.27902,-25.08463
PY.CG.NL,Nueva Londres,Caaguazú,-56.55965,-25.41289
PY.CG.TC,R. I. 3 Corrales,Caaguazú,-56.23131,-25.35615
PY.CG.RO,Raúl Arsenio Oviedo,Caaguazú,-55.52045,-25.15936
PY.CG.RE,Repatriación,Caaguazú,-55.80464,-25.57632
PY.CG.SJ,San Joaquín,Caaguazú,-56.04116,-25.03704
PY.CG.SA,San José de los Arroyos,Caaguazú,-56.69463,-25.53228
PY.CG.SM,Santa Rosa del Mbutuy,Caaguazú,-56.25419,-24.91781
PY.CG.SB,Simón Bolívar,Caaguazú,-56.32981,-25.02088
PY.CG.YH,Yhú,Caaguazú,-55.64471,-24.82555
PY.CZ.AB,Abaí,Caazapá,-55.7139,-25.89142
PY.CZ.CA,Caazapá,Caazapá,-56.29506,-26.17886
PY.CZ.DB,Doctor Moisés S. Bertoni,Caazapá,-56.60252,-26.39004
,Emboscada (Caazapa),Caazapá,-56.09871,-26.22951
PY.CZ.FY,Fulgencio Yegros,Caazapá,-56.55736,-26.54745
PY.CZ.GM,General Higinio Morínigo,Caazapá,-56.1088,-26.06774
PY.CZ.MA,Maciel,Caazapá,-56.52301,-26.21743
PY.CZ.SN,San Juan Nepomuceno,Caazapá,-55.91558,-26.23843
PY.CZ.TA,Tabaí,Caazapá,-55.5281,-26.18543
PY.CZ.YU,Yuty,Caazapá,-56.23728,-26.5303
,Corpus Christi,Canindeyú,-55.03684,-24.13559
,General Francisco C. Alvarez,Canindeyú,-54.661,-24.32214
,Itanara,Canindeyú,-55.67516,-23.75859
PY.CY.SG,Salto del Guairá,Canindeyú,-54.38905,-24.21652
PY.CY.VC,Villa San Isidro Curuguaty,Canindeyú,-55.7287,-24.38152
PY.CY.VY,Villa Ygatimí,Canindeyú,-55.49265,-24.13905
PY.CY.YP,Ypejhú,Canindeyú,-55.72096,-23.92674
PY.CE.NE,Ñemby,Central,-57.53123,-25.39261
PY.CE.AR,Areguá,Central,-57.39298,-25.2903
PY.CE.CA,Capiatá,Central,-57.45196,-25.36548
PY.CE.FM,Fernando de la Mora,Central,-57.54925,-25.32022
PY.CE.GU,Guarambaré,Central,-57.45129,-25.48014
PY.CE.IT,Itá,Central,-57.37558,-25.51971
PY.CE.IG,Itauguá,Central,-57.35286,-25.39495
PY.CE.JS,Juan Augusto Saldívar,Central,-57.43246,-25.41882
PY.CE.LA,Lambaré,Central,-57.61501,-25.34806
PY.CE.LI,Limpio,Central,-57.47734,-25.14792
PY.CE.LU,Luque,Central,-57.45657,-25.24385
PY.CE.MA,Mariano Roque Alonso,Central,-57.53359,-25.1947
PY.CE.NI,Nueva Italia,Central,-57.4763,-25.76551
PY.CE.SA,San Antonio,Central,-57.5583,-25.41267
PY.CE.SL,San Lorenzo,Central,-57.51056,-25.34443
PY.CE.VE,Villa Elisa,Central,-57.58671,-25.36953
PY.CE.VI,Villeta,Central,-57.60092,-25.70681
,Water body,Central,-57.32762,-25.30311
PY.CE.YC,Ypacaraí,Central,-57.25384,-25.38887
PY.CE.YN,Ypané,Central,-57.50517,-25.45237
PY.CN.BE,Belén,Concepción,-57.2207,-23.43495
,Concepción,Concepción,-57.26742,-22.79051
PY.CN.HO,Horqueta,Concepción,-56.73685,-23.27319
PY.CN.LO,Loreto,Concepción,-57.15829,-23.21356
PY.CN.SC,San Carlos,Concepción,-57.32803,-22.3557
PY.CN.SL,San Lázaro,Concepción,-57.75478,-22.23426
PY.CN.YY,Yby Yaù,Concepción,-56.37313,-23.01206
PY.CR.AL,Altos,Cordillera,-57.21551,-25.25068
PY.CR.AE,Arroyos y Esteros,Cordillera,-57.16601,-25.0351
PY.CR.AT,Atyrá,Cordillera,-57.14575,-25.2527
PY.CR.CC,Caacupé,Cordillera,-57.1223,-25.37007
PY.CR.CR,Caraguatay,Cordillera,-56.74054,-25.21687
PY.CR.EM,Emboscada,Cordillera,-57.36135,-25.12238
PY.CR.EU,Eusebio Ayala,Cordillera,-56.97734,-25.35572
PY.CR.IS,Isla Pucú,Cordillera,-56.8992,-25.30027
PY.CR.IC,Itacurubí de la Cordillera,Cordillera,-56.86853,-25.46611
PY.CR.JM,Juan de Mena,Cordillera,-56.76815,-24.986
PY.CR.LG,Loma Grande,Cordillera,-57.18958,-25.14457
PY.CR.MY,Mbocayaty del Yhaguy,Cordillera,-56.70119,-25.3319
PY.CR.NC,Nueva Colombia,Cordillera,-57.26436,-25.15602
PY.CR.PI,Piribebuy,Cordillera,-57.03957,-25.46368
PY.CR.PM,Primero de Marzo,Cordillera,-56.97426,-25.12226
PY.CR.SB,San Bernardino,Cordillera,-57.28528,-25.27974
PY.CR.SO,San José Obrero,Cordillera,-56.88225,-25.11446
PY.CR.SE,Santa Elena,Cordillera,-56.81879,-25.39165
PY.CR.TO,Tobatí,Cordillera,-57.04603,-25.21576
PY.CR.VA,Valenzuela,Cordillera,-56.85741,-25.58876
PY.GU.NU,Ñumí,Guairá,-56.31111,-25.90368
PY.GU.BO,Borja,Guairá,-56.60692,-26.02464
PY.GU.CT,Capitán Mauricio José Troche,Guairá,-56.19997,-25.60583
PY.GU.CM,Coronel Martínez,Guairá,-56.61648,-25.75838
PY.GU.DB,Doctor Botrell,Guairá,-56.36571,-25.59514
,Félix Perez Cardozo,Guairá,-56.53292,-25.70815
PY.GU.GG,General Eugenio A. Garay,Guairá,-56.19216,-25.92983
PY.GU.IN,Independencia,Guairá,-56.0676,-25.7326
PY.GU.IP,Itapé,Guairá,-56.56031,-25.84666
PY.GU.IB,Iturbe,Guairá,-56.46214,-26.05829
PY.GU.JF,Jose A. Fassardi,Guairá,-55.92845,-25.82726
PY.GU.MG,Mbocayaty del Guairá,Guairá,-56.36272,-25.70094
PY.GU.NT,Natalicio Talavera,Guairá,-56.28221,-25.65697
PY.GU.SS,San Salvador,Guairá,-56.42262,-25.94982
PY.GU.VI,Villarrica,Guairá,-56.40498,-25.82403
PY.GU.YG,Yataity del Guairá,Guairá,-56.47617,-25.66466
PY.IT.AV,Alto Verá,Itapúa,-55.7255,-26.58547
PY.IT.BV,Bella Vista,Itapúa,-55.5339,-27.00817
PY.AA.NC,Cambyreta,Itapúa,-55.76619,-27.3582
PY.IT.CZ,Capitán Meza,Itapúa,-55.36433,-26.77961
PY.IT.CM,Capitán Miranda,Itapúa,-55.83089,-27.18227
PY.IT.CL,Carlos Antonio López,Itapúa,-54.89818,-26.36949
PY.IT.CP,Carmen del Paraná,Itapúa,-56.10778,-27.21418
PY.IT.CB,Coronel Bogado,Itapúa,-56.29223,-27.17418
PY.IT.ED,Edelira,Itapúa,-55.40103,-26.57543
PY.IT.EN,Encarnación,Itapúa,-55.9003,-27.26893
PY.IT.FR,Fram,Itapúa,-56.01901,-27.07481
PY.IT.GA,General Artigas,Itapúa,-56.37549,-26.90837
PY.IT.GD,General Delgado,Itapúa,-56.55824,-27.07452
PY.IT.HO,Hohenau,Itapúa,-55.74091,-27.00626
PY.IT.JE,Jesús,Itapúa,-55.78084,-27.05824
PY.IT.JO,José Leandro Oviedo,Itapúa,-56.23455,-26.7481
PY.IT.LP,La Paz,Itapúa,-55.90791,-26.98304
PY.IT.MO,Mayor Julio D. Otaño,Itapúa,-54.77161,-26.27433
PY.IT.NT,Natalio,Itapúa,-55.14224,-26.75615
PY.IT.NA,Nueva Alborada,Itapúa,-55.66391,-27.28037
PY.IT.OB,Obligado,Itapúa,-55.70758,-26.92457
PY.IT.PI,Pirapó,Itapúa,-55.53917,-26.84288
PY.IT.SC,San Cosme y Damián,Itapúa,-56.47224,-27.35887
PY.IT.SJ,San Juan del Paraná,Itapúa,-55.9876,-27.29958
PY.IT.SP,San Pedro del Paraná,Itapúa,-56.0213,-26.72713
PY.IT.SR,San Rafael del Paraná,Itapúa,-55.12191,-26.41485
PY.IT.TP,Tomás Romero Pereira,Itapúa,-55.30165,-26.46811
PY.IT.TR,Trinidad,Itapúa,-55.73568,-27.14699
PY.IT.YA,Yatytay,Itapúa,-55.07734,-26.66837
PY.MI.AY,Ayolas,Misiones,-56.93957,-27.41466
PY.MI.SI,San Ignacio,Misiones,-57.14553,-26.94497
PY.MI.SJ,San Juan Bautista de las Misiones,Misiones,-57.40725,-26.7002
PY.MI.SG,San Miguel,Misiones,-56.96605,-26.56835
PY.MI.SP,San Patricio,Misiones,-56.82925,-26.98294
PY.MI.SM,Santa María,Misiones,-56.88874,-26.72699
PY.MI.SM,Santa Rosa,Misiones,-56.79513,-26.85963
PY.MI.SA,Santiago,Misiones,-56.78478,-27.13336
PY.MI.VF,Villa Florida,Misiones,-57.12512,-26.45688
PY.MI.YA,Yabebyry,Misiones,-57.18501,-27.2535
PY.PG.AC,Acahay,Paraguarí,-57.07257,-25.89102
PY.PG.CP,Caapucú,Paraguarí,-57.38644,-26.33
PY.PG.CR,Carapeguá,Paraguarí,-57.32385,-25.75942
PY.PG.ES,Escobar,Paraguarí,-57.01109,-25.63
PY.PG.GC,General Bernardino Caballero,Paraguarí,-56.88411,-25.74974
PY.PG.LC,La Colmena,Paraguarí,-56.81778,-25.90445
PY.PG.MB,Mbuyapey,Paraguarí,-56.80483,-26.27369
PY.PG.PA,Paraguarí,Paraguarí,-57.13447,-25.6636
PY.PG.PI,Pirayú,Paraguarí,-57.20609,-25.47389
PY.PG.QI,Quiíndy,Paraguarí,-57.31841,-26.00773
PY.PG.QQ,Quyquyhó,Paraguarí,-57.01114,-26.25033
PY.PG.SG,San Roque González de Santa Cruz,Paraguarí,-57.30611,-25.8805
PY.PG.SA,Sapucaí,Paraguarí,-56.97239,-25.71654
PY.PG.TE,Tebicuarymí,Paraguarí,-56.66527,-25.91407
PY.PG.YA,Yaguarón,Paraguarí,-57.27949,-25.59217
,Ybycui,Paraguarí,-56.94577,-26.04064
PY.PG.YT,Ybytimí,Paraguarí,-56.76716,-25.77344
PY.PH.BA,Benjamín Aceval,Presidente Hayes,-57.64879,-24.81936
PY.PH.PC,Pozo Colorado,Presidente Hayes,-58.82575,-23.17662
PY.PH.PP,Puerto Pinasco,Presidente Hayes,-58.35792,-22.60402
PY.PH.VH,Villa Hayes,Presidente Hayes,-58.72515,-24.20439
PY.SP.VD,25 de Diciembre,San Pedro,-56.80548,-24.76992
PY.SP.AN,Antequera,San Pedro,-57.17531,-24.08703
PY.SP.CH,Choré,San Pedro,-56.579,-24.17023
PY.SP.GA,General Elizardo Aquino,San Pedro,-56.79173,-24.3761
PY.SP.GR,General Isidoro Resquín,San Pedro,-56.20234,-24.00187
PY.SP.IR,Itacurubí del Rosario,San Pedro,-56.79969,-24.58051
PY.SP.LI,Lima,San Pedro,-56.56194,-23.97156
PY.SP.NG,Nueva Germania,San Pedro,-56.31757,-23.73559
PY.SP.SE,San Estanislao,San Pedro,-56.25213,-24.53593
PY.SP.SP,San Pablo,San Pedro,-56.91999,-24.12967
PY.SP.SY,San Pedro del Ycuamandyyú,San Pedro,-57.07465,-23.77035
PY.SP.TA,Tacuatí,San Pedro,-56.61585,-23.53969
PY.SP.UN,Unión,San Pedro,-56.52866,-24.85708
PY.SP.VR,Villa del Rosario,San Pedro,-57.08894,-24.56206
PY.SP.YN,Yataity del Norte,San Pedro,-56.33865,-24.82031
