"id","name","lat","lon"
1,"South Region",2.79256,11.731
2,"Far North Region",10.7227,14.5367
3,"North Region",8.90981,13.8908
4,"Adamaoua Region",6.80472,13.217
5,"North-West Region",6.34548,10.4002
6,"South-West Region",5.12818,9.24481
7,"East Region",3.78379,14.1674
8,"Littoral Region",4.1938,10.0932
9,"West Region",5.36694,10.5889
10,"Centre Region",4.73268,11.7383
