"id","name","lat","lon"
1,"Matabeleland North Province",-18.7582,27.2215
2,"Matabeleland South Province",-20.8913,28.8871
3,"Masvingo Province",-20.7844,31.0875
4,"Mashonaland West Province",-17.0176,29.5025
5,"Mashonaland Central Province",-16.8822,31.3922
6,"Mashonaland East Province",-18.2141,31.666
7,"Manicaland Province",-18.9399,32.1206
8,"Midlands Province",-19.0828,29.4323
9,"Harare Province",-17.8928,31.0506
10,"Bulawayo Province",-20.1393,28.5463
